EngNames	Lat	Lon	Language	Group	Family	color	label
Aytkhan	43.69773	46.82498	Andi	Andic	Nakh-Daghestanian	orange3	͏͏
Andi	42.7856	46.2639	Andi	Andic	Nakh-Daghestanian	orange3	Andi
Ashali	42.76963	46.30878	Andi	Andic	Nakh-Daghestanian	orange3	Ashali
Gagatli	42.800361	46.292645	Andi	Andic	Nakh-Daghestanian	orange3	Gagatli
Gunkha	42.78968	46.28275	Andi	Andic	Nakh-Daghestanian	orange3	Gunkha
Dzhugut	43.70835	46.86498	Andi	Andic	Nakh-Daghestanian	orange3	͏͏
Zilo	42.731394	46.319223	Andi	Andic	Nakh-Daghestanian	orange3	Zilo
Kvankhidatli	42.65789	46.271742	Andi	Andic	Nakh-Daghestanian	orange3	Kvankhidatli
Mekheturi	42.70556	46.2375	Andi	Andic	Nakh-Daghestanian	orange3	͏͏
Muni	42.680242	46.308874	Andi	Andic	Nakh-Daghestanian	orange3	Muni
Novogagatli	43.4561	46.4819	Andi	Andic	Nakh-Daghestanian	orange3	͏͏
Rikvani	42.782304	46.319372	Andi	Andic	Nakh-Daghestanian	orange3	Rikvani
Rushukha	42.71509	46.28112	Andi	Andic	Nakh-Daghestanian	orange3	͏͏
Khando	42.72694	46.23361	Andi	Andic	Nakh-Daghestanian	orange3	͏͏
Tsibilta	42.74322	46.24311	Andi	Andic	Nakh-Daghestanian	orange3	͏͏
Chanko	42.717936	46.246417	Andi	Andic	Nakh-Daghestanian	orange3	Chanko
Shivor	42.714662	46.256637	Andi	Andic	Nakh-Daghestanian	orange3	͏͏
Abdurashid	43.38644	46.67183	Avar	Avar	Nakh-Daghestanian	yellow	͏͏
Agada	42.412001	46.841895	Avar	Avar	Nakh-Daghestanian	yellow	͏͏
Adzhidada	43.2861	47.0731	Avar	Avar	Nakh-Daghestanian	yellow	͏͏
Aymaki	42.5342	47.1383	Avar	Avar	Nakh-Daghestanian	yellow	͏͏
Akaytala	43.03176	46.92583	Avar	Avar	Nakh-Daghestanian	yellow	͏͏
Akaro (Yazykovka)	43.352007	46.977198	Avar	Avar	Nakh-Daghestanian	yellow	͏͏
Aksay	43.3686	46.4461	Avar	Avar	Nakh-Daghestanian	yellow	͏͏
Akushali	42.4992	46.9504	Avar	Avar	Nakh-Daghestanian	yellow	͏͏
Ala	42.415472	46.837085	Avar	Avar	Nakh-Daghestanian	yellow	͏͏
Alak	42.6092	46.1972	Avar	Avar	Nakh-Daghestanian	yellow	͏͏
Albaniya (Tonokh-Kuli)	43.2056	46.6933	Avar	Avar	Nakh-Daghestanian	yellow	͏͏
Aleksandriyskaya	43.9047	47.1297	Avar	Avar	Nakh-Daghestanian	yellow	͏͏
Almak	42.985693	46.580315	Avar	Avar	Nakh-Daghestanian	yellow	͏͏
Almalo	43.0967	47.2253	Avar	Avar	Nakh-Daghestanian	yellow	͏͏
Al'burikent	42.97389	47.47111	Avar	Avar	Nakh-Daghestanian	yellow	͏͏
Amishta	42.62967	46.552971	Avar	Avar	Nakh-Daghestanian	yellow	͏͏
Amushi Bol'shoe	42.63752	46.4864	Avar	Avar	Nakh-Daghestanian	yellow	͏͏
Amushi Maloe	42.650445	46.487815	Avar	Avar	Nakh-Daghestanian	yellow	͏͏
Anada	42.17306	46.36917	Avar	Avar	Nakh-Daghestanian	yellow	͏͏
Andykh	42.5119	46.5939	Avar	Avar	Nakh-Daghestanian	yellow	͏͏
Ansalta	42.6939	46.1147	Avar	Avar	Nakh-Daghestanian	yellow	͏͏
Ankhvala	43.65583	46.90389	Avar	Avar	Nakh-Daghestanian	yellow	͏͏
Antsukh	42.1892	46.3397	Avar	Avar	Nakh-Daghestanian	yellow	͏͏
Apshi	42.6094	47.1742	Avar	Avar	Nakh-Daghestanian	yellow	͏͏
Arada	43.30962	47.15059	Avar	Avar	Nakh-Daghestanian	yellow	͏͏
Arakani	42.610078	46.991711	Avar	Avar	Nakh-Daghestanian	yellow	͏͏
Arani	42.5556	46.7225	Avar	Avar	Nakh-Daghestanian	yellow	͏͏
Argvani	42.8128	46.5792	Avar	Avar	Nakh-Daghestanian	yellow	͏͏
Arkas	42.65194	47.13833	Avar	Avar	Nakh-Daghestanian	yellow	͏͏
Arkida	43.20583	47.0625	Avar	Avar	Nakh-Daghestanian	yellow	͏͏
Artlukh	42.8631	46.6683	Avar	Avar	Nakh-Daghestanian	yellow	͏͏
Arykhkent	42.64472	47.19165	Avar	Avar	Nakh-Daghestanian	yellow	͏͏
Assab	42.471596	46.492475	Avar	Avar	Nakh-Daghestanian	yellow	͏͏
Akhalchi	42.594957	46.631744	Avar	Avar	Nakh-Daghestanian	yellow	͏͏
Akhkent	42.57353	47.18488	Avar	Avar	Nakh-Daghestanian	yellow	͏͏
Akhsu	42.92342	46.694116	Avar	Avar	Nakh-Daghestanian	yellow	͏͏
Akhtachikan	43.49528	47.11944	Avar	Avar	Nakh-Daghestanian	yellow	͏͏
Akhtini	43.28282	47.02641	Avar	Avar	Nakh-Daghestanian	yellow	͏͏
Ashil'ta	42.772446	46.728853	Avar	Avar	Nakh-Daghestanian	yellow	͏͏
Babayurt	43.601403	46.783386	Avar	Avar	Nakh-Daghestanian	yellow	͏͏
Bavtugay	43.16808	46.83415	Avar	Avar	Nakh-Daghestanian	yellow	͏͏
Baginub	42.1743	46.88159	Avar	Avar	Nakh-Daghestanian	yellow	͏͏
Baitl'	42.546452	46.676472	Avar	Avar	Nakh-Daghestanian	yellow	͏͏
Bayram	43.25691	46.6513	Avar	Avar	Nakh-Daghestanian	yellow	͏͏
Balanub	42.4284	46.8251	Avar	Avar	Nakh-Daghestanian	yellow	͏͏
Balakhani	42.63128	46.89514	Avar	Avar	Nakh-Daghestanian	yellow	͏͏
Barnab	42.07964	46.37894	Avar	Avar	Nakh-Daghestanian	yellow	͏͏
Batlaich	42.554821	46.754217	Avar	Avar	Nakh-Daghestanian	yellow	͏͏
Batsada	42.3036	46.9092	Avar	Avar	Nakh-Daghestanian	yellow	͏͏
Bezhuda	42.200348	46.479175	Avar	Avar	Nakh-Daghestanian	yellow	͏͏
Betel'da	41.95077	46.54164	Avar	Avar	Nakh-Daghestanian	yellow	͏͏
Betli	42.72372	46.73388	Avar	Avar	Nakh-Daghestanian	yellow	͏͏
Bogatyrevka	43.118523	47.368198	Avar	Avar	Nakh-Daghestanian	yellow	͏͏
Bol'shaya Areshevka	44.107833	46.916939	Avar	Avar	Nakh-Daghestanian	yellow	͏͏
Bol'shezadoevskoe	43.8661	46.8289	Avar	Avar	Nakh-Daghestanian	yellow	͏͏
Bol'shoy Urala	42.424277	46.805844	Avar	Avar	Nakh-Daghestanian	yellow	͏͏
Bochokh	42.22	46.28472	Avar	Avar	Nakh-Daghestanian	yellow	͏͏
Burtunay	42.992004	46.630332	Avar	Avar	Nakh-Daghestanian	yellow	͏͏
Busutli	42.24512	46.363326	Avar	Avar	Nakh-Daghestanian	yellow	͏͏
Bukhty	42.240712	46.985633	Avar	Avar	Nakh-Daghestanian	yellow	͏͏
Butsra	42.58902	46.7677	Avar	Avar	Nakh-Daghestanian	yellow	͏͏
Verkhnie Akhalchi	42.59911	46.63581	Avar	Avar	Nakh-Daghestanian	yellow	͏͏
Verkhnee Inkho	42.70659	46.50415	Avar	Avar	Nakh-Daghestanian	yellow	͏͏
Verkhnie Khvarshini	42.41088	45.84551	Avar	Avar	Nakh-Daghestanian	yellow	͏͏
Verkhniy Aradirikh	42.67099	46.60372	Avar	Avar	Nakh-Daghestanian	yellow	͏͏
Verkhniy Batlukh	42.496276	46.502217	Avar	Avar	Nakh-Daghestanian	yellow	͏͏
Verkhniy Dzhengutay	42.67476	47.23415	Avar	Avar	Nakh-Daghestanian	yellow	͏͏
Verkhniy Karanay	42.8281	46.9072	Avar	Avar	Nakh-Daghestanian	yellow	͏͏
Verkhniy Kolob	42.42614	46.6579	Avar	Avar	Nakh-Daghestanian	yellow	͏͏
Verkhniy Togokh	42.430206	46.698316	Avar	Avar	Nakh-Daghestanian	yellow	͏͏
Vinogradnoe	43.9167	46.81963	Avar	Avar	Nakh-Daghestanian	yellow	͏͏
Gagar	41.999252	46.592744	Avar	Avar	Nakh-Daghestanian	yellow	͏͏
Gadari	42.807303	46.621237	Avar	Avar	Nakh-Daghestanian	yellow	͏͏
Gamiyakh	43.2075	46.4886	Avar	Avar	Nakh-Daghestanian	yellow	͏͏
Gamsutl'	42.301972	46.996315	Avar	Avar	Nakh-Daghestanian	yellow	͏͏
Garakolob	42.048887	46.455015	Avar	Avar	Nakh-Daghestanian	yellow	͏͏
Gatsalukh	42.59298	46.64949	Avar	Avar	Nakh-Daghestanian	yellow	͏͏
Gvedysh	42.13591	46.41437	Avar	Avar	Nakh-Daghestanian	yellow	͏͏
Gebguda	42.190026	46.354817	Avar	Avar	Nakh-Daghestanian	yellow	͏͏
Gel'bakh (V. Chiryurt)	43.15101	46.85751	Avar	Avar	Nakh-Daghestanian	yellow	͏͏
Gendukh	42.13476	46.403084	Avar	Avar	Nakh-Daghestanian	yellow	͏͏
Genekolob	41.916992	46.600199	Avar	Avar	Nakh-Daghestanian	yellow	͏͏
Genitsurib	42.425104	46.705356	Avar	Avar	Nakh-Daghestanian	yellow	͏͏
Genichutl'	42.56455	46.73959	Avar	Avar	Nakh-Daghestanian	yellow	͏͏
Genta	42.37001	46.56099	Avar	Avar	Nakh-Daghestanian	yellow	͏͏
Gergebil'	42.5047	47.0661	Avar	Avar	Nakh-Daghestanian	yellow	͏͏
Gergentala	42.73225	47.05913	Avar	Avar	Nakh-Daghestanian	yellow	͏͏
Gerel'	41.94451	46.551888	Avar	Avar	Nakh-Daghestanian	yellow	͏͏
Gertma	42.996711	46.74415	Avar	Avar	Nakh-Daghestanian	yellow	͏͏
Gidatli	42.266327	46.374506	Avar	Avar	Nakh-Daghestanian	yellow	͏͏
Gidib	42.22942	46.80621	Avar	Avar	Nakh-Daghestanian	yellow	͏͏
Gilib	42.1169	46.7761	Avar	Avar	Nakh-Daghestanian	yellow	͏͏
Gimry	42.757219	46.838739	Avar	Avar	Nakh-Daghestanian	yellow	͏͏
Gindib	42.11296	46.50397	Avar	Avar	Nakh-Daghestanian	yellow	͏͏
Goab	42.097185	46.738407	Avar	Avar	Nakh-Daghestanian	yellow	͏͏
Gogotl'	42.45481	46.76547	Avar	Avar	Nakh-Daghestanian	yellow	͏͏
Gozolokolo	42.569651	46.61206	Avar	Avar	Nakh-Daghestanian	yellow	͏͏
Goksuv	43.2222	46.82137	Avar	Avar	Nakh-Daghestanian	yellow	͏͏
Golotl'	42.485962	46.735698	Avar	Avar	Nakh-Daghestanian	yellow	͏͏
Gondokori	43.55252	46.89127	Avar	Avar	Nakh-Daghestanian	yellow	͏͏
Gonoda	42.4697	46.7892	Avar	Avar	Nakh-Daghestanian	yellow	͏͏
Gonokh	42.56163	46.6896	Avar	Avar	Nakh-Daghestanian	yellow	͏͏
Gontlob	42.280673	46.726468	Avar	Avar	Nakh-Daghestanian	yellow	͏͏
Goor	42.43339	46.56927	Avar	Avar	Nakh-Daghestanian	yellow	͏͏
Goor-Khindakh	42.449273	46.575312	Avar	Avar	Nakh-Daghestanian	yellow	͏͏
Gortkolo	42.576655	46.63945	Avar	Avar	Nakh-Daghestanian	yellow	͏͏
Gortnob	41.962665	46.525604	Avar	Avar	Nakh-Daghestanian	yellow	͏͏
Gostala	43.07334	46.6925	Avar	Avar	Nakh-Daghestanian	yellow	͏͏
Gotsatl' Bol'shoy	42.51862	46.88262	Avar	Avar	Nakh-Daghestanian	yellow	͏͏
Gotsatl' Malyy	42.5041	46.88829	Avar	Avar	Nakh-Daghestanian	yellow	͏͏
Gotsob	42.58963	46.86901	Avar	Avar	Nakh-Daghestanian	yellow	͏͏
Gochada	42.272626	46.765272	Avar	Avar	Nakh-Daghestanian	yellow	͏͏
Gochob	42.2375	46.6642	Avar	Avar	Nakh-Daghestanian	yellow	͏͏
Guni	43.0311	46.6992	Avar	Avar	Nakh-Daghestanian	yellow	͏͏
Gunib	42.388232	46.962258	Avar	Avar	Nakh-Daghestanian	yellow	͏͏
Gunukh	42.28043	46.76307	Avar	Avar	Nakh-Daghestanian	yellow	͏͏
Dagbash	42.380347	46.351961	Avar	Avar	Nakh-Daghestanian	yellow	͏͏
Dadulazda	42.4189	46.80373	Avar	Avar	Nakh-Daghestanian	yellow	͏͏
Darada	42.465606	46.936573	Avar	Avar	Nakh-Daghestanian	yellow	͏͏
Datuna	42.47357	46.64364	Avar	Avar	Nakh-Daghestanian	yellow	͏͏
Dzhalaturi	42.631847	46.567028	Avar	Avar	Nakh-Daghestanian	yellow	͏͏
Dzerzhinskoe	43.5192	46.4731	Avar	Avar	Nakh-Daghestanian	yellow	͏͏
Doronub	42.124689	46.809427	Avar	Avar	Nakh-Daghestanian	yellow	͏͏
Dubki	43.02116	46.83746	Avar	Avar	Nakh-Daghestanian	yellow	͏͏
Durangi	42.63571	47.22366	Avar	Avar	Nakh-Daghestanian	yellow	͏͏
Dusrakh	42.1275	46.8792	Avar	Avar	Nakh-Daghestanian	yellow	͏͏
Dylym	43.0703	46.6386	Avar	Avar	Nakh-Daghestanian	yellow	͏͏
Yefimovka	43.84302	46.79782	Avar	Avar	Nakh-Daghestanian	yellow	͏͏
Zhazhada	42.197157	46.424903	Avar	Avar	Nakh-Daghestanian	yellow	͏͏
Zaib	42.489364	46.707472	Avar	Avar	Nakh-Daghestanian	yellow	͏͏
Zanata	42.485146	46.552771	Avar	Avar	Nakh-Daghestanian	yellow	͏͏
Zarechnoe	43.76292	46.58238	Avar	Avar	Nakh-Daghestanian	yellow	͏͏
Zarya Kommuny	43.89784	46.73016	Avar	Avar	Nakh-Daghestanian	yellow	͏͏
Zirani	42.61797	46.94436	Avar	Avar	Nakh-Daghestanian	yellow	͏͏
Ziurib	42.41789	46.705088	Avar	Avar	Nakh-Daghestanian	yellow	͏͏
Zubutli-Miatli (TsIobok'-Miyak'o)	43.1978	46.8122	Avar	Avar	Nakh-Daghestanian	yellow	͏͏
Ibragimotar	43.56491	46.46879	Avar	Avar	Nakh-Daghestanian	yellow	͏͏
Ivaylazda	42.42	46.79917	Avar	Avar	Nakh-Daghestanian	yellow	͏͏
Igali	42.7181	46.5811	Avar	Avar	Nakh-Daghestanian	yellow	͏͏
Izta	42.30889	46.35667	Avar	Avar	Nakh-Daghestanian	yellow	͏͏
Imeni Zhdanova	43.85694	46.69528	Avar	Avar	Nakh-Daghestanian	yellow	͏͏
Imanaliroso	42.91429	46.76761	Avar	Avar	Nakh-Daghestanian	yellow	͏͏
Imeni Kirova	43.86396	46.70564	Avar	Avar	Nakh-Daghestanian	yellow	͏͏
Imeni Shaumyana	43.87796	46.68821	Avar	Avar	Nakh-Daghestanian	yellow	͏͏
Ingerdakh	42.58926	46.398373	Avar	Avar	Nakh-Daghestanian	yellow	͏͏
Ingishi	42.77477	46.54264	Avar	Avar	Nakh-Daghestanian	yellow	͏͏
Inkvalita	42.69936	46.68833	Avar	Avar	Nakh-Daghestanian	yellow	͏͏
Inchkha	43.0964	46.7675	Avar	Avar	Nakh-Daghestanian	yellow	͏͏
Iputa	42.47852	46.96592	Avar	Avar	Nakh-Daghestanian	yellow	͏͏
Irganay	42.649543	46.912048	Avar	Avar	Nakh-Daghestanian	yellow	͏͏
Irib	42.1606	46.8169	Avar	Avar	Nakh-Daghestanian	yellow	͏͏
Ikha	42.256944	45.820075	Avar	Avar	Nakh-Daghestanian	yellow	͏͏
Ichichali	42.732617	46.405263	Avar	Avar	Nakh-Daghestanian	yellow	͏͏
Ishtiburi	42.679149	46.702701	Avar	Avar	Nakh-Daghestanian	yellow	͏͏
Kabasida	42.205771	46.341334	Avar	Avar	Nakh-Daghestanian	yellow	͏͏
Kamilukh	41.90911	46.63101	Avar	Avar	Nakh-Daghestanian	yellow	͏͏
Karadakh	42.471023	46.863724	Avar	Avar	Nakh-Daghestanian	yellow	͏͏
Karanub	42.12262	46.81777	Avar	Avar	Nakh-Daghestanian	yellow	͏͏
Kardib	42.111443	46.514655	Avar	Avar	Nakh-Daghestanian	yellow	͏͏
Kardonovka	43.8158	46.8478	Avar	Avar	Nakh-Daghestanian	yellow	͏͏
Karlanyurt	43.2303	46.6447	Avar	Avar	Nakh-Daghestanian	yellow	͏͏
Katroso	42.188329	46.33021	Avar	Avar	Nakh-Daghestanian	yellow	͏͏
Kakh	42.557664	46.790848	Avar	Avar	Nakh-Daghestanian	yellow	͏͏
Kakhabroso	42.73896	46.704697	Avar	Avar	Nakh-Daghestanian	yellow	͏͏
Kakhib	42.4272	46.5969	Avar	Avar	Nakh-Daghestanian	yellow	͏͏
Kakhikal	42.499065	46.874809	Avar	Avar	Nakh-Daghestanian	yellow	͏͏
Kversatl'	42.302562	46.392793	Avar	Avar	Nakh-Daghestanian	yellow	͏͏
Keger	42.3767	47.0275	Avar	Avar	Nakh-Daghestanian	yellow	͏͏
Kedi	42.52611	45.96639	Avar	Avar	Nakh-Daghestanian	yellow	͏͏
Kerlikent	44.02694	46.74889	Avar	Avar	Nakh-Daghestanian	yellow	͏͏
Kizhani	42.74031	46.364775	Avar	Avar	Nakh-Daghestanian	yellow	Kizhani
Kizilyurt	43.20182	46.87756	Avar	Avar	Nakh-Daghestanian	yellow	͏͏
Kizlyar	43.84465	46.718689	Avar	Avar	Nakh-Daghestanian	yellow	͏͏
Kikuni	42.513979	47.036122	Avar	Avar	Nakh-Daghestanian	yellow	͏͏
Kilyatl'	42.704637	46.466046	Avar	Avar	Nakh-Daghestanian	yellow	͏͏
Kirovaul	43.2361	46.8469	Avar	Avar	Nakh-Daghestanian	yellow	͏͏
Kishdatl'	42.304638	46.342239	Avar	Avar	Nakh-Daghestanian	yellow	͏͏
Kienikh	42.43056	46.66639	Avar	Avar	Nakh-Daghestanian	yellow	͏͏
Kokrek	43.23639	46.72665	Avar	Avar	Nakh-Daghestanian	yellow	͏͏
Kollektivizator	43.95942	47.39102	Avar	Avar	Nakh-Daghestanian	yellow	͏͏
Kolo	42.65769	46.56607	Avar	Avar	Nakh-Daghestanian	yellow	͏͏
Kommuna	42.3656	46.9686	Avar	Avar	Nakh-Daghestanian	yellow	͏͏
Komsomol'skiy	43.97833	46.69852	Avar	Avar	Nakh-Daghestanian	yellow	͏͏
Komsomol'skoe	43.1956	46.8964	Avar	Avar	Nakh-Daghestanian	yellow	͏͏
Koroda	42.44961	46.846988	Avar	Avar	Nakh-Daghestanian	yellow	͏͏
Kosob	42.242893	46.368239	Avar	Avar	Nakh-Daghestanian	yellow	͏͏
Kosroda	42.13141	46.85829	Avar	Avar	Nakh-Daghestanian	yellow	͏͏
Kochubey	44.39179	46.54615	Avar	Avar	Nakh-Daghestanian	yellow	͏͏
Kraynovka	43.9772	47.3719	Avar	Avar	Nakh-Daghestanian	yellow	͏͏
Krasnoe (Selo)	44.100232	46.877563	Avar	Avar	Nakh-Daghestanian	yellow	͏͏
Krasnooktyabr'skoe	43.84705	46.65553	Avar	Avar	Nakh-Daghestanian	yellow	͏͏
Krasnyy Voskhod	43.86232	46.67508	Avar	Avar	Nakh-Daghestanian	yellow	͏͏
Kuanib	42.509735	46.611385	Avar	Avar	Nakh-Daghestanian	yellow	͏͏
Kudali	42.3678	47.0789	Avar	Avar	Nakh-Daghestanian	yellow	͏͏
Kudutl'	42.5783	47.0194	Avar	Avar	Nakh-Daghestanian	yellow	͏͏
Kuznetsovskoe	43.90277	46.63276	Avar	Avar	Nakh-Daghestanian	yellow	͏͏
Kuker	42.43106	46.80982	Avar	Avar	Nakh-Daghestanian	yellow	͏͏
Kuletsma	42.5556	47.2339	Avar	Avar	Nakh-Daghestanian	yellow	͏͏
Kulla	42.31346	46.91014	Avar	Avar	Nakh-Daghestanian	yellow	͏͏
Kul'zeb	43.1686	47.0108	Avar	Avar	Nakh-Daghestanian	yellow	͏͏
Kunzakh	42.74884	46.66488	Avar	Avar	Nakh-Daghestanian	yellow	͏͏
Kurmi	42.46639	47.04222	Avar	Avar	Nakh-Daghestanian	yellow	͏͏
Kusur	41.781293	46.949207	Avar	Avar	Nakh-Daghestanian	yellow	͏͏
Kutikh	42.12587	46.78902	Avar	Avar	Nakh-Daghestanian	yellow	͏͏
Kutisha	42.4236	47.2831	Avar	Avar	Nakh-Daghestanian	yellow	͏͏
Kutlab	42.09663	46.32982	Avar	Avar	Nakh-Daghestanian	yellow	͏͏
Kuchrab	42.17506	46.90244	Avar	Avar	Nakh-Daghestanian	yellow	͏͏
Kyakhulay	42.96839	47.48301	Avar	Avar	Nakh-Daghestanian	yellow	͏͏
Lakhchayda	42.41345	46.8378	Avar	Avar	Nakh-Daghestanian	yellow	͏͏
Maali	42.4858	46.9197	Avar	Avar	Nakh-Daghestanian	yellow	͏͏
Magar	42.19546	46.843669	Avar	Avar	Nakh-Daghestanian	yellow	͏͏
Magitl'	42.248081	46.366738	Avar	Avar	Nakh-Daghestanian	yellow	͏͏
Mazada	42.197896	46.390092	Avar	Avar	Nakh-Daghestanian	yellow	͏͏
Maydanskoe	42.601674	46.958927	Avar	Avar	Nakh-Daghestanian	yellow	͏͏
Malaya Areshevka	44.0208	46.8231	Avar	Avar	Nakh-Daghestanian	yellow	͏͏
Malaya Zadoevka	43.86766	46.85721	Avar	Avar	Nakh-Daghestanian	yellow	͏͏
Maloe Kozyrevskoe	43.90025	46.81582	Avar	Avar	Nakh-Daghestanian	yellow	͏͏
Malyy Urala	42.42216	46.80506	Avar	Avar	Nakh-Daghestanian	yellow	͏͏
Manasaul	42.7575	47.0397	Avar	Avar	Nakh-Daghestanian	yellow	͏͏
Matlas	42.595249	46.605532	Avar	Avar	Nakh-Daghestanian	yellow	͏͏
Machada	42.37839	46.53725	Avar	Avar	Nakh-Daghestanian	yellow	͏͏
Machar	42.206556	46.335204	Avar	Avar	Nakh-Daghestanian	yellow	͏͏
Mesterukh	42.5747	46.3964	Avar	Avar	Nakh-Daghestanian	yellow	͏͏
Metrada	42.393034	45.888954	Avar	Avar	Nakh-Daghestanian	yellow	͏͏
Mekhel'ta	42.798277	46.497361	Avar	Avar	Nakh-Daghestanian	yellow	͏͏
Miatli	43.08173	46.8286	Avar	Avar	Nakh-Daghestanian	yellow	͏͏
Mikdatl'	42.309412	46.380732	Avar	Avar	Nakh-Daghestanian	yellow	͏͏
Mitliurib	42.43537	46.68836	Avar	Avar	Nakh-Daghestanian	yellow	͏͏
Mogilyovskoe	43.26106	46.62714	Avar	Avar	Nakh-Daghestanian	yellow	͏͏
Mogrob	42.15672	46.86521	Avar	Avar	Nakh-Daghestanian	yellow	͏͏
Mokoda	42.42385	46.66963	Avar	Avar	Nakh-Daghestanian	yellow	͏͏
Moksob	43.434004	46.48603	Avar	Avar	Nakh-Daghestanian	yellow	͏͏
Moksokh	42.6538	46.80572	Avar	Avar	Nakh-Daghestanian	yellow	͏͏
Mochokh	42.63159	46.61242	Avar	Avar	Nakh-Daghestanian	yellow	͏͏
Moschob	42.21389	46.79167	Avar	Avar	Nakh-Daghestanian	yellow	͏͏
Mugdab	42.420445	46.807523	Avar	Avar	Nakh-Daghestanian	yellow	͏͏
Mugurukh	42.26064	46.86533	Avar	Avar	Nakh-Daghestanian	yellow	͏͏
Mukutl'	42.19562	46.861381	Avar	Avar	Nakh-Daghestanian	yellow	͏͏
Mulla-Ali	43.86792	46.88344	Avar	Avar	Nakh-Daghestanian	yellow	͏͏
Murada	42.445422	46.954469	Avar	Avar	Nakh-Daghestanian	yellow	͏͏
Murukh	42.27719	46.7715	Avar	Avar	Nakh-Daghestanian	yellow	͏͏
Musrukh	42.32897	46.51614	Avar	Avar	Nakh-Daghestanian	yellow	͏͏
Mutsalaul	43.2719	46.7311	Avar	Avar	Nakh-Daghestanian	yellow	͏͏
Muschuli	42.633706	46.498593	Avar	Avar	Nakh-Daghestanian	yellow	͏͏
Nadar	42.09736	46.36025	Avar	Avar	Nakh-Daghestanian	yellow	͏͏
Nakazukh	42.264594	46.914238	Avar	Avar	Nakh-Daghestanian	yellow	͏͏
Narysh	43.52692	46.69469	Avar	Avar	Nakh-Daghestanian	yellow	͏͏
Nachada	42.198508	46.448902	Avar	Avar	Nakh-Daghestanian	yellow	͏͏
Nizhnee Inkho	42.704518	46.507752	Avar	Avar	Nakh-Daghestanian	yellow	͏͏
Nizhnie Khvarshini	42.4108	45.8697	Avar	Avar	Nakh-Daghestanian	yellow	͏͏
Nizhnie Chugli	42.46318	47.29733	Avar	Avar	Nakh-Daghestanian	yellow	͏͏
Nizhniy Aradirikh	42.68979	46.568219	Avar	Avar	Nakh-Daghestanian	yellow	͏͏
Nizhniy Batlukh	42.4853	46.5239	Avar	Avar	Nakh-Daghestanian	yellow	͏͏
Nizhniy Karanay	42.84729	46.940488	Avar	Avar	Nakh-Daghestanian	yellow	͏͏
Nizhniy Kolob	42.430087	46.659303	Avar	Avar	Nakh-Daghestanian	yellow	͏͏
Nizhniy Togokh	42.43381	46.70246	Avar	Avar	Nakh-Daghestanian	yellow	͏͏
Nizhniy Chiryurt	43.17299	46.86328	Avar	Avar	Nakh-Daghestanian	yellow	͏͏
Nikar	42.0737	46.406903	Avar	Avar	Nakh-Daghestanian	yellow	͏͏
Niklida	42.199941	46.406485	Avar	Avar	Nakh-Daghestanian	yellow	͏͏
Nitab	42.51925	46.63256	Avar	Avar	Nakh-Daghestanian	yellow	͏͏
Nitilsukh	42.04732	46.42938	Avar	Avar	Nakh-Daghestanian	yellow	͏͏
Novo-Argvani	42.78174	46.60445	Avar	Avar	Nakh-Daghestanian	yellow	͏͏
Novoterechnoe	44.01557	47.34915	Avar	Avar	Nakh-Daghestanian	yellow	͏͏
Novogeorgievka	43.9314	46.6339	Avar	Avar	Nakh-Daghestanian	yellow	͏͏
Novogladovka	43.84923	46.89421	Avar	Avar	Nakh-Daghestanian	yellow	͏͏
Novye Gadari	43.19425	46.76904	Avar	Avar	Nakh-Daghestanian	yellow	͏͏
Novoe Kheleturi	43.47958	46.784633	Avar	Avar	Nakh-Daghestanian	yellow	͏͏
Novokare	43.6011	46.9675	Avar	Avar	Nakh-Daghestanian	yellow	͏͏
Novokokhanovskoe	43.8672	46.6508	Avar	Avar	Nakh-Daghestanian	yellow	͏͏
Novomekhel'ta	43.249918	46.54397	Avar	Avar	Nakh-Daghestanian	yellow	͏͏
Novomonastyrskoe	43.865916	46.607527	Avar	Avar	Nakh-Daghestanian	yellow	͏͏
Novonadezhdovka	43.83556	46.93295	Avar	Avar	Nakh-Daghestanian	yellow	͏͏
Novoromanovka	43.9567	46.6444	Avar	Avar	Nakh-Daghestanian	yellow	͏͏
Novosasitli	43.38468	46.58564	Avar	Avar	Nakh-Daghestanian	yellow	͏͏
Novochurtakh	43.2131	46.5436	Avar	Avar	Nakh-Daghestanian	yellow	͏͏
Novyy Bakhtemir	44.131866	47.265502	Avar	Avar	Nakh-Daghestanian	yellow	͏͏
Novyy Biryuzyak	43.77431	47.294614	Avar	Avar	Nakh-Daghestanian	yellow	͏͏
Novyy Sulak	43.21068	46.81809	Avar	Avar	Nakh-Daghestanian	yellow	͏͏
Novyy Khushet	42.900261	47.561244	Avar	Avar	Nakh-Daghestanian	yellow	͏͏
Novyy Chechen'	44.254761	47.07089	Avar	Avar	Nakh-Daghestanian	yellow	͏͏
Novyy Chirkey	43.1617	47.0567	Avar	Avar	Nakh-Daghestanian	yellow	͏͏
Noyrukh	42.193895	46.38005	Avar	Avar	Nakh-Daghestanian	yellow	͏͏
Nukush	42.1492	46.80579	Avar	Avar	Nakh-Daghestanian	yellow	͏͏
Nusi	43.45602	46.9706	Avar	Avar	Nakh-Daghestanian	yellow	͏͏
Nukhotkolob	42.23195	46.265721	Avar	Avar	Nakh-Daghestanian	yellow	͏͏
Oboda	42.578542	46.668203	Avar	Avar	Nakh-Daghestanian	yellow	͏͏
Obonub	42.40556	46.83972	Avar	Avar	Nakh-Daghestanian	yellow	͏͏
Obokh	42.28362	47.03734	Avar	Avar	Nakh-Daghestanian	yellow	͏͏
Orada-Chugli	42.49384	47.22264	Avar	Avar	Nakh-Daghestanian	yellow	͏͏
Orkachi	42.6058	46.81797	Avar	Avar	Nakh-Daghestanian	yellow	͏͏
Orota	42.65915	46.53772	Avar	Avar	Nakh-Daghestanian	yellow	͏͏
Ortakolo	42.67057	46.38882	Avar	Avar	Nakh-Daghestanian	yellow	Ortakolo
Okhli	42.55565	47.209281	Avar	Avar	Nakh-Daghestanian	yellow	͏͏
Ochlo	42.642518	46.64532	Avar	Avar	Nakh-Daghestanian	yellow	͏͏
Pervokizlyarskoe	43.88591	46.67872	Avar	Avar	Nakh-Daghestanian	yellow	͏͏
Petrakovskoe	43.25332	46.6321	Avar	Avar	Nakh-Daghestanian	yellow	͏͏
Plodopitomnik	43.99533	46.73344	Avar	Avar	Nakh-Daghestanian	yellow	͏͏
Pyatiletka	43.37262	46.96553	Avar	Avar	Nakh-Daghestanian	yellow	͏͏
Ravkvatl'	42.372455	46.579617	Avar	Avar	Nakh-Daghestanian	yellow	͏͏
Razdol'e	44.1942	46.5856	Avar	Avar	Nakh-Daghestanian	yellow	͏͏
Rassvet	43.9786	46.7111	Avar	Avar	Nakh-Daghestanian	yellow	͏͏
Ratlub	42.359268	46.433433	Avar	Avar	Nakh-Daghestanian	yellow	͏͏
Rakhata	42.6911	46.1414	Avar	Avar	Nakh-Daghestanian	yellow	͏͏
Ratsitl'	42.63788	46.33455	Avar	Avar	Nakh-Daghestanian	yellow	͏͏
Ritlyab	42.05087	46.71917	Avar	Avar	Nakh-Daghestanian	yellow	͏͏
Rosta	42.20056	46.39667	Avar	Avar	Nakh-Daghestanian	yellow	͏͏
Rosutl'	42.41533	46.8308	Avar	Avar	Nakh-Daghestanian	yellow	͏͏
Rugel'da	42.3175	46.5244	Avar	Avar	Nakh-Daghestanian	yellow	͏͏
Rugudzha	42.3606	46.9139	Avar	Avar	Nakh-Daghestanian	yellow	͏͏
Rul'dab	42.18472	46.85028	Avar	Avar	Nakh-Daghestanian	yellow	͏͏
Rybalko	43.78321	46.65519	Avar	Avar	Nakh-Daghestanian	yellow	͏͏
Sabda	42.311355	46.371346	Avar	Avar	Nakh-Daghestanian	yellow	͏͏
Sadovoe	43.34119	46.77181	Avar	Avar	Nakh-Daghestanian	yellow	͏͏
Salda	41.97497	46.50848	Avar	Avar	Nakh-Daghestanian	yellow	͏͏
Salta	42.39589	47.07048	Avar	Avar	Nakh-Daghestanian	yellow	͏͏
Samilakh	43.31816	47.06008	Avar	Avar	Nakh-Daghestanian	yellow	͏͏
Saniorta	42.03195	46.44246	Avar	Avar	Nakh-Daghestanian	yellow	͏͏
Saraf	42.20373	46.31767	Avar	Avar	Nakh-Daghestanian	yellow	͏͏
Sasitli	42.496173	45.996762	Avar	Avar	Nakh-Daghestanian	yellow	͏͏
Sachada	42.258411	46.699595	Avar	Avar	Nakh-Daghestanian	yellow	͏͏
Semender	42.98833	47.40361	Avar	Avar	Nakh-Daghestanian	yellow	͏͏
Sentukh	43.43724	46.89029	Avar	Avar	Nakh-Daghestanian	yellow	͏͏
Sekh	42.416094	46.826447	Avar	Avar	Nakh-Daghestanian	yellow	͏͏
Sikar	42.07966	46.41127	Avar	Avar	Nakh-Daghestanian	yellow	͏͏
Silta	42.38728	47.07127	Avar	Avar	Nakh-Daghestanian	yellow	͏͏
Sil'di	42.4552	45.92715	Avar	Avar	Nakh-Daghestanian	yellow	͏͏
Sinida	42.20341	46.39071	Avar	Avar	Nakh-Daghestanian	yellow	͏͏
Siukh	42.5999	46.54462	Avar	Avar	Nakh-Daghestanian	yellow	͏͏
Sogratl'	42.2808	46.9914	Avar	Avar	Nakh-Daghestanian	yellow	͏͏
Sodab	42.215081	46.81015	Avar	Avar	Nakh-Daghestanian	yellow	͏͏
Somoda	42.30272	46.5368	Avar	Avar	Nakh-Daghestanian	yellow	͏͏
Sredniy Aradirikh	42.68121	46.58022	Avar	Avar	Nakh-Daghestanian	yellow	͏͏
Stal'skoe	43.1878	46.9731	Avar	Avar	Nakh-Daghestanian	yellow	͏͏
Staroterechnoe	43.85585	47.46163	Avar	Avar	Nakh-Daghestanian	yellow	͏͏
Staryy Bavtugay	43.17479	46.83946	Avar	Avar	Nakh-Daghestanian	yellow	͏͏
Staryy Sivukh	42.80278	46.43694	Avar	Avar	Nakh-Daghestanian	yellow	͏͏
Sultan-Yangiyurt	43.21961	46.86187	Avar	Avar	Nakh-Daghestanian	yellow	͏͏
Sumeta	42.262025	46.705541	Avar	Avar	Nakh-Daghestanian	yellow	͏͏
Tagada	42.497573	46.868389	Avar	Avar	Nakh-Daghestanian	yellow	͏͏
Tadiyal	42.11099	46.4823	Avar	Avar	Nakh-Daghestanian	yellow	͏͏
Talsukh	42.04741	46.40589	Avar	Avar	Nakh-Daghestanian	yellow	͏͏
Talukh	42.25652	46.74433	Avar	Avar	Nakh-Daghestanian	yellow	͏͏
Tando	42.707696	46.175693	Avar	Avar	Nakh-Daghestanian	yellow	͏͏
Tantari	42.76371	46.64888	Avar	Avar	Nakh-Daghestanian	yellow	͏͏
Tanusi	42.58233	46.69233	Avar	Avar	Nakh-Daghestanian	yellow	͏͏
Taratul-Meer	42.619281	47.112087	Avar	Avar	Nakh-Daghestanian	yellow	͏͏
Tarumovka	44.0733	46.5364	Avar	Avar	Nakh-Daghestanian	yellow	͏͏
Tasuta	42.71731	46.22568	Avar	Avar	Nakh-Daghestanian	yellow	͏͏
Tekita	42.630886	46.521832	Avar	Avar	Nakh-Daghestanian	yellow	͏͏
Teletl'	42.4289	46.7317	Avar	Avar	Nakh-Daghestanian	yellow	͏͏
Temirgoe	43.127436	47.136434	Avar	Avar	Nakh-Daghestanian	yellow	͏͏
Terechnoe	43.4358	46.4008	Avar	Avar	Nakh-Daghestanian	yellow	͏͏
Tidib	42.3889	46.5742	Avar	Avar	Nakh-Daghestanian	yellow	͏͏
Tilanib	42.310964	46.366528	Avar	Avar	Nakh-Daghestanian	yellow	͏͏
Tilutl'	42.109079	46.350054	Avar	Avar	Nakh-Daghestanian	yellow	͏͏
Tinchuda	42.19861	46.45306	Avar	Avar	Nakh-Daghestanian	yellow	͏͏
Tlaylukh	42.6208	46.52428	Avar	Avar	Nakh-Daghestanian	yellow	͏͏
Tlezda	42.421358	46.721564	Avar	Avar	Nakh-Daghestanian	yellow	͏͏
Tlobzoda	42.17944	46.37111	Avar	Avar	Nakh-Daghestanian	yellow	͏͏
Tlogob	42.4189	46.8153	Avar	Avar	Nakh-Daghestanian	yellow	͏͏
Tlokh	42.6492	46.4578	Avar	Avar	Nakh-Daghestanian	yellow	͏͏
Tlyanada	42.02864	46.51038	Avar	Avar	Nakh-Daghestanian	yellow	͏͏
Tlyanub	42.43568	46.45745	Avar	Avar	Nakh-Daghestanian	yellow	͏͏
Tlyarobazutl'	42.14039	46.77575	Avar	Avar	Nakh-Daghestanian	yellow	͏͏
Tlyarosh	42.275317	46.751805	Avar	Avar	Nakh-Daghestanian	yellow	͏͏
Tlyakh	42.389928	46.540021	Avar	Avar	Nakh-Daghestanian	yellow	͏͏
Tokh	42.222292	46.291546	Avar	Avar	Nakh-Daghestanian	yellow	͏͏
Tokh-Orda	42.11174	46.35982	Avar	Avar	Nakh-Daghestanian	yellow	͏͏
Tokhota	42.0178	46.4639	Avar	Avar	Nakh-Daghestanian	yellow	͏͏
Tukita	43.489353	46.613481	Avar	Avar	Nakh-Daghestanian	yellow	͏͏
Tumagari	42.58165	46.60662	Avar	Avar	Nakh-Daghestanian	yellow	͏͏
Tunzi	42.46888	46.97573	Avar	Avar	Nakh-Daghestanian	yellow	͏͏
Turshunay	43.6003	46.6642	Avar	Avar	Nakh-Daghestanian	yellow	͏͏
Tukhchar	43.2192	46.4139	Avar	Avar	Nakh-Daghestanian	yellow	͏͏
Tushilovka	44.3092	46.8814	Avar	Avar	Nakh-Daghestanian	yellow	͏͏
Tyube	43.051429	47.286806	Avar	Avar	Nakh-Daghestanian	yellow	͏͏
Uzdalroso	42.48612	46.85577	Avar	Avar	Nakh-Daghestanian	yellow	͏͏
Ukal	42.12163	46.34771	Avar	Avar	Nakh-Daghestanian	yellow	͏͏
Ul'geb	41.964253	46.523688	Avar	Avar	Nakh-Daghestanian	yellow	͏͏
Umashaul	43.32606	46.69719	Avar	Avar	Nakh-Daghestanian	yellow	͏͏
Unkida	42.328698	46.885731	Avar	Avar	Nakh-Daghestanian	yellow	͏͏
Unty	42.311452	46.944631	Avar	Avar	Nakh-Daghestanian	yellow	͏͏
Untsukul'	42.7131	46.7875	Avar	Avar	Nakh-Daghestanian	yellow	͏͏
Urada	42.3822	46.5617	Avar	Avar	Nakh-Daghestanian	yellow	͏͏
Urib	42.4564	46.6736	Avar	Avar	Nakh-Daghestanian	yellow	͏͏
Urma	42.5383	47.2869	Avar	Avar	Nakh-Daghestanian	yellow	͏͏
Urukh-Sota	42.24222	46.67694	Avar	Avar	Nakh-Daghestanian	yellow	͏͏
Urchiab	42.657739	47.016338	Avar	Avar	Nakh-Daghestanian	yellow	͏͏
Urchukh	42.325548	46.495518	Avar	Avar	Nakh-Daghestanian	yellow	͏͏
Utlukh	42.267533	46.730055	Avar	Avar	Nakh-Daghestanian	yellow	͏͏
Utsmiyurt	43.5342	46.4703	Avar	Avar	Nakh-Daghestanian	yellow	͏͏
Uchkent	43.1136	47.0794	Avar	Avar	Nakh-Daghestanian	yellow	͏͏
Khadakolob	42.231683	46.261819	Avar	Avar	Nakh-Daghestanian	yellow	͏͏
Khadiyal	42.0989	46.4653	Avar	Avar	Nakh-Daghestanian	yellow	͏͏
Khamagib	42.402538	46.850422	Avar	Avar	Nakh-Daghestanian	yellow	͏͏
Khamakal	42.428109	46.674497	Avar	Avar	Nakh-Daghestanian	yellow	͏͏
Khamar	42.095868	46.383695	Avar	Avar	Nakh-Daghestanian	yellow	͏͏
Khamzayurt	43.4509	46.98475	Avar	Avar	Nakh-Daghestanian	yellow	͏͏
Khantakolob	42.21944	46.29083	Avar	Avar	Nakh-Daghestanian	yellow	͏͏
Kharada	42.222648	46.258528	Avar	Avar	Nakh-Daghestanian	yellow	͏͏
Kharakhi	42.6433	46.5211	Avar	Avar	Nakh-Daghestanian	yellow	͏͏
Kharachi	42.67744	46.82263	Avar	Avar	Nakh-Daghestanian	yellow	͏͏
Kharib	43.520028	46.5541444	Avar	Avar	Nakh-Daghestanian	yellow	͏͏
Kharikolo	42.5451	46.80847	Avar	Avar	Nakh-Daghestanian	yellow	͏͏
Khakhita	42.4667	47.2642	Avar	Avar	Nakh-Daghestanian	yellow	͏͏
Khatsunob	42.425999	46.802058	Avar	Avar	Nakh-Daghestanian	yellow	͏͏
Khachta	43.18498	47.07371	Avar	Avar	Nakh-Daghestanian	yellow	͏͏
Khvarada	42.46889	46.99406	Avar	Avar	Nakh-Daghestanian	yellow	͏͏
Khvartikuni	42.4569	47.0067	Avar	Avar	Nakh-Daghestanian	yellow	͏͏
Khebda	42.443976	46.549984	Avar	Avar	Nakh-Daghestanian	yellow	͏͏
Khebdib	42.43	46.86	Avar	Avar	Nakh-Daghestanian	yellow	͏͏
Kheleturi	42.612495	46.225441	Avar	Avar	Nakh-Daghestanian	yellow	͏͏
Khidib	42.17812	46.36299	Avar	Avar	Nakh-Daghestanian	yellow	͏͏
Khimakoro	42.590092	46.617523	Avar	Avar	Nakh-Daghestanian	yellow	͏͏
Khini	42.52767	46.70496	Avar	Avar	Nakh-Daghestanian	yellow	͏͏
Khintida	42.220547	46.275395	Avar	Avar	Nakh-Daghestanian	yellow	͏͏
Khinub	42.17454	46.82406	Avar	Avar	Nakh-Daghestanian	yellow	͏͏
Khobokh	42.204624	46.379234	Avar	Avar	Nakh-Daghestanian	yellow	͏͏
Khopor	42.352716	46.937396	Avar	Avar	Nakh-Daghestanian	yellow	͏͏
Khorta	42.19329	46.35976	Avar	Avar	Nakh-Daghestanian	yellow	͏͏
Khotlob	42.201243	46.432755	Avar	Avar	Nakh-Daghestanian	yellow	͏͏
Khotoda	42.39393	46.559446	Avar	Avar	Nakh-Daghestanian	yellow	͏͏
Khotoch	42.408408	46.954024	Avar	Avar	Nakh-Daghestanian	yellow	͏͏
Khubar	43.0514	46.7547	Avar	Avar	Nakh-Daghestanian	yellow	͏͏
Khurukh	42.18441	46.85807	Avar	Avar	Nakh-Daghestanian	yellow	͏͏
Khuty	42.1875	47.07	Avar	Avar	Nakh-Daghestanian	yellow	͏͏
Khutseevka	43.92938	46.78123	Avar	Avar	Nakh-Daghestanian	yellow	͏͏
Khuchada	42.400235	46.469178	Avar	Avar	Nakh-Daghestanian	yellow	͏͏
Tsada	42.56694	46.7125	Avar	Avar	Nakh-Daghestanian	yellow	͏͏
Tsalada	42.42472	46.81472	Avar	Avar	Nakh-Daghestanian	yellow	͏͏
Tsalkita	42.61798	46.57339	Avar	Avar	Nakh-Daghestanian	yellow	͏͏
Tsamla	42.420013	46.841042	Avar	Avar	Nakh-Daghestanian	yellow	͏͏
Tsanatl'	42.72244	46.62252	Avar	Avar	Nakh-Daghestanian	yellow	͏͏
Tsatanikh	42.667793	46.723937	Avar	Avar	Nakh-Daghestanian	yellow	͏͏
Tsvetkovka	43.93939	46.83366	Avar	Avar	Nakh-Daghestanian	yellow	͏͏
Tsekob	42.422785	46.450219	Avar	Avar	Nakh-Daghestanian	yellow	͏͏
Tsel'mes	42.623464	46.538549	Avar	Avar	Nakh-Daghestanian	yellow	͏͏
Tsemer	42.15195	46.75296	Avar	Avar	Nakh-Daghestanian	yellow	͏͏
Tseneb	42.206684	46.842652	Avar	Avar	Nakh-Daghestanian	yellow	͏͏
Tsibari	42.25213	45.87861	Avar	Avar	Nakh-Daghestanian	yellow	͏͏
Tsilitl'	42.8125	46.4156	Avar	Avar	Nakh-Daghestanian	yellow	͏͏
Tsimguda	42.01269	46.5665	Avar	Avar	Nakh-Daghestanian	yellow	͏͏
Tsiab-Ichichali	43.38712	46.61917	Avar	Avar	Nakh-Daghestanian	yellow	͏͏
Tsiyab-Tsilitli (Novo-Tsilitli)	43.48694	46.67833	Avar	Avar	Nakh-Daghestanian	yellow	͏͏
Tsiyab-Tsoloda (Gerzel'-Kutan)	43.251968	46.413657	Avar	Avar	Nakh-Daghestanian	yellow	͏͏
Tsoloda	42.63827	46.36626	Avar	Avar	Nakh-Daghestanian	yellow	͏͏
Tsulda	42.27357	46.72095	Avar	Avar	Nakh-Daghestanian	yellow	͏͏
Tsumali	42.607619	46.260923	Avar	Avar	Nakh-Daghestanian	yellow	͏͏
Tsumilukh	42.05974	46.41242	Avar	Avar	Nakh-Daghestanian	yellow	͏͏
Tsundi	42.740996	46.436577	Avar	Avar	Nakh-Daghestanian	yellow	͏͏
Chadakolob	42.19182	46.31981	Avar	Avar	Nakh-Daghestanian	yellow	͏͏
Chalda	42.538206	46.920351	Avar	Avar	Nakh-Daghestanian	yellow	͏͏
Chanab	42.125345	46.90434	Avar	Avar	Nakh-Daghestanian	yellow	͏͏
Charoda	42.2764	46.8019	Avar	Avar	Nakh-Daghestanian	yellow	͏͏
Chvadab	42.13028	46.87639	Avar	Avar	Nakh-Daghestanian	yellow	͏͏
Childa	42.16328	46.34734	Avar	Avar	Nakh-Daghestanian	yellow	͏͏
Chirkata	42.783992	46.716609	Avar	Avar	Nakh-Daghestanian	yellow	͏͏
Chirkey	42.9633	46.9767	Avar	Avar	Nakh-Daghestanian	yellow	͏͏
Chitab	42.10412	46.86914	Avar	Avar	Nakh-Daghestanian	yellow	͏͏
Chitl'	42.722594	46.504009	Avar	Avar	Nakh-Daghestanian	yellow	͏͏
Chododa	42.193439	46.314784	Avar	Avar	Nakh-Daghestanian	yellow	͏͏
Chondotl'	42.547749	46.659112	Avar	Avar	Nakh-Daghestanian	yellow	͏͏
Chonob	42.407667	46.853808	Avar	Avar	Nakh-Daghestanian	yellow	͏͏
Chontaul	43.30481	46.85967	Avar	Avar	Nakh-Daghestanian	yellow	͏͏
Choroda	41.98096	46.49696	Avar	Avar	Nakh-Daghestanian	yellow	͏͏
Chokh	42.3206	47.0336	Avar	Avar	Nakh-Daghestanian	yellow	͏͏
Chubutla	44.112498	46.374184	Avar	Avar	Nakh-Daghestanian	yellow	͏͏
Chuni	42.34832	47.30303	Avar	Avar	Nakh-Daghestanian	yellow	͏͏
Chunib	42.20496	46.82498	Avar	Avar	Nakh-Daghestanian	yellow	͏͏
Shabdukh	42.75612	46.42139	Avar	Avar	Nakh-Daghestanian	yellow	͏͏
Shamil'kala	42.690407	46.874769	Avar	Avar	Nakh-Daghestanian	yellow	͏͏
Shamkhal	43.056632	47.344526	Avar	Avar	Nakh-Daghestanian	yellow	͏͏
Shamkhal-Termen	43.03389	47.31053	Avar	Avar	Nakh-Daghestanian	yellow	͏͏
Shangoda	42.246859	47.000153	Avar	Avar	Nakh-Daghestanian	yellow	͏͏
Shidib	42.214353	46.300745	Avar	Avar	Nakh-Daghestanian	yellow	͏͏
Shitli	42.24574	47.01268	Avar	Avar	Nakh-Daghestanian	yellow	͏͏
Shodroda (Shadroda)	42.678426	46.12155	Avar	Avar	Nakh-Daghestanian	yellow	͏͏
Shotota	42.58165	46.57729	Avar	Avar	Nakh-Daghestanian	yellow	͏͏
Sshulani	42.3067	46.9294	Avar	Avar	Nakh-Daghestanian	yellow	͏͏
Shulatuta	42.63167	46.85806	Avar	Avar	Nakh-Daghestanian	yellow	͏͏
Shushanovka	43.20156	46.98195	Avar	Avar	Nakh-Daghestanian	yellow	͏͏
Ebuta	42.59275	46.66626	Avar	Avar	Nakh-Daghestanian	yellow	͏͏
Egeda	42.409124	46.844276	Avar	Avar	Nakh-Daghestanian	yellow	͏͏
Enseruda	42.40611	46.85278	Avar	Avar	Nakh-Daghestanian	yellow	͏͏
Yuzhnoe	43.8169	46.7242	Avar	Avar	Nakh-Daghestanian	yellow	͏͏
Yurkovka	44.1789	46.6797	Avar	Avar	Nakh-Daghestanian	yellow	͏͏
Ashino	42.683462	46.156727	Botlikh	Andic	Nakh-Daghestanian	sandybrown	Ashino
Botlikh	42.667813	46.221451	Botlikh	Andic	Nakh-Daghestanian	sandybrown	Botlikh
Miarso	42.654059	46.175643	Botlikh	Andic	Nakh-Daghestanian	sandybrown	Miarso
Budug	41.18611	48.36861	Budukh	Lezgic	Nakh-Daghestanian	#C7E9C0	͏͏
Abdurashid	43.38644	46.67183	Chechen	Nakh	Nakh-Daghestanian		͏͏
Adil'otar	43.4603	46.6761	Chechen	Nakh	Nakh-Daghestanian		͏͏
Akbulatyurt	43.45934	46.38598	Chechen	Nakh	Nakh-Daghestanian		͏͏
Bayramaul	43.296175	46.730134	Chechen	Nakh	Nakh-Daghestanian		͏͏
Bammatbekyurt	43.27167	46.61972	Chechen	Nakh	Nakh-Daghestanian		͏͏
Bammatyurt	43.3442	46.6075	Chechen	Nakh	Nakh-Daghestanian		͏͏
Banayyurt (Akhar)	43.1375	46.4225	Chechen	Nakh	Nakh-Daghestanian		͏͏
Boragangechuv	43.30852	46.43596	Chechen	Nakh	Nakh-Daghestanian		͏͏
Genzheaul	43.2934	46.75729	Chechen	Nakh	Nakh-Daghestanian		͏͏
Germenchik	43.5403	46.7256	Chechen	Nakh	Nakh-Daghestanian		͏͏
Danukh	42.84282	46.6275	Chechen	Nakh	Nakh-Daghestanian		͏͏
Duchi	43.129826	47.460438	Chechen	Nakh	Nakh-Daghestanian		͏͏
Kadyrotar	43.44099	46.65515	Chechen	Nakh	Nakh-Daghestanian		͏͏
Kandauraul	43.3414	46.5664	Chechen	Nakh	Nakh-Daghestanian		͏͏
Kemsiyurt	43.43439	46.43548	Chechen	Nakh	Nakh-Daghestanian		͏͏
Lopukhovka	43.93463	47.4079	Chechen	Nakh	Nakh-Daghestanian		͏͏
Mogilyovskoe	43.26106	46.62714	Chechen	Nakh	Nakh-Daghestanian		͏͏
Nitsovkra	42.15951	47.081271	Chechen	Nakh	Nakh-Daghestanian		͏͏
Novolakskoe	43.1169	46.4839	Chechen	Nakh	Nakh-Daghestanian		͏͏
Novosel'skoe	43.4275	46.4667	Chechen	Nakh	Nakh-Daghestanian		͏͏
Nuradilovo	43.284357	46.4645	Chechen	Nakh	Nakh-Daghestanian		͏͏
Osmanyurt	43.3056	46.5308	Chechen	Nakh	Nakh-Daghestanian		͏͏
Petrakovskoe	43.25332	46.6321	Chechen	Nakh	Nakh-Daghestanian		͏͏
Pokrovskoe	43.2886	46.6658	Chechen	Nakh	Nakh-Daghestanian		͏͏
Pyatiletka	43.37262	46.96553	Chechen	Nakh	Nakh-Daghestanian		͏͏
Simsir	43.31315	46.54329	Chechen	Nakh	Nakh-Daghestanian		͏͏
Solnechnoe	43.2761	46.5069	Chechen	Nakh	Nakh-Daghestanian		͏͏
Tatayurt	43.5619	46.9961	Chechen	Nakh	Nakh-Daghestanian		͏͏
Tutlar	43.46703	46.68876	Chechen	Nakh	Nakh-Daghestanian		͏͏
Ukrainskoe	43.91396	47.00889	Chechen	Nakh	Nakh-Daghestanian		͏͏
Umarotar	43.42388	46.69025	Chechen	Nakh	Nakh-Daghestanian		͏͏
Khamavyurt	43.2722	46.4286	Chechen	Nakh	Nakh-Daghestanian		͏͏
Khasavyurt	43.246769	46.58939	Chechen	Nakh	Nakh-Daghestanian		͏͏
Chankayurt	43.56935	46.56515	Chechen	Nakh	Nakh-Daghestanian		͏͏
Charavali	43.16188	46.50747	Chechen	Nakh	Nakh-Daghestanian		͏͏
Yamansu (Shushiya)	43.13546	46.425114	Chechen	Nakh	Nakh-Daghestanian		͏͏
Beledi	42.66722	46.05361	Godoberi	Andic	Nakh-Daghestanian	orange	͏͏
Godoberi	42.6258	46.1189	Godoberi	Andic	Nakh-Daghestanian	orange	͏͏
Zibirkhali	42.66833	46.07194	Godoberi	Andic	Nakh-Daghestanian	orange	͏͏
Anduz	43.52361	46.87639	Karata	Andic	Nakh-Daghestanian	tomato3	͏͏
Anchik (Anchikh)	42.608098	46.271717	Karata	Andic	Nakh-Daghestanian	tomato3	͏͏
Archo	42.597691	46.305756	Karata	Andic	Nakh-Daghestanian	tomato3	͏͏
Verkhnee Inkhelo	42.62035	46.329732	Karata	Andic	Nakh-Daghestanian	tomato3	͏͏
Indira	43.495013	46.80715	Karata	Andic	Nakh-Daghestanian	tomato3	͏͏
Inkhelo (Novoe Inkhelo)	43.46797	46.61451	Karata	Andic	Nakh-Daghestanian	tomato3	͏͏
Kaziyurt	43.38808	47.03489	Karata	Andic	Nakh-Daghestanian	tomato3	͏͏
Karata	42.5942	46.3419	Karata	Andic	Nakh-Daghestanian	tomato3	͏͏
Kirpichkutan	43.46198	46.61053	Karata	Andic	Nakh-Daghestanian	tomato3	͏͏
Mashtada	42.61362	46.314659	Karata	Andic	Nakh-Daghestanian	tomato3	͏͏
Nizhnee Inkhelo	42.645134	46.259367	Karata	Andic	Nakh-Daghestanian	tomato3	Nizhnee Inkhelo
Ratsitl'	42.63788	46.33455	Karata	Andic	Nakh-Daghestanian	tomato3	͏͏
Rachabulda	42.617256	46.300014	Karata	Andic	Nakh-Daghestanian	tomato3	͏͏
Siukh	42.5999	46.54462	Karata	Andic	Nakh-Daghestanian	tomato3	͏͏
Tukita	42.57056	46.37278	Karata	Andic	Nakh-Daghestanian	tomato3	͏͏
Agachaul	42.92306	47.46064	Kumyk	Kipchak	Turkic	grey60	͏͏
Agachkala	42.76698	47.07599	Kumyk	Kipchak	Turkic	grey60	͏͏
Adanak	42.7522	47.4586	Kumyk	Kipchak	Turkic	grey60	͏͏
Adzhidada	43.2861	47.0731	Kumyk	Kipchak	Turkic	grey60	͏͏
Adzhimazhagatyurt	43.35055	46.50783	Kumyk	Kipchak	Turkic	grey60	͏͏
Adil'-Yangiyurt	43.5633	46.5853	Kumyk	Kipchak	Turkic	grey60	͏͏
Aksay	43.3686	46.4461	Kumyk	Kipchak	Turkic	grey60	͏͏
Almalo	43.0967	47.2253	Kumyk	Kipchak	Turkic	grey60	͏͏
Alkhadzhakent	42.340016	47.79177	Kumyk	Kipchak	Turkic	grey60	͏͏
Al'burikent	42.97389	47.47111	Kumyk	Kipchak	Turkic	grey60	͏͏
Babayurt	43.601403	46.783386	Kumyk	Kipchak	Turkic	grey60	͏͏
Bayram	43.25691	46.6513	Kumyk	Kipchak	Turkic	grey60	͏͏
Bayramaul	43.296175	46.730134	Kumyk	Kipchak	Turkic	grey60	͏͏
Batashyurt	43.3069	46.5108	Kumyk	Kipchak	Turkic	grey60	͏͏
Batayurt	43.315233	46.680623	Kumyk	Kipchak	Turkic	grey60	͏͏
Bashlykent	42.2597	47.8439	Kumyk	Kipchak	Turkic	grey60	͏͏
Buglen	42.7553	47.1989	Kumyk	Kipchak	Turkic	grey60	͏͏
Verkhnie Ishkarty	42.84907	46.95309	Kumyk	Kipchak	Turkic	grey60	͏͏
Verkhnee Kazanische	42.7306	47.1381	Kumyk	Kipchak	Turkic	grey60	͏͏
Gasha	42.33592	47.83067	Kumyk	Kipchak	Turkic	grey60	͏͏
Gelli	42.7267	47.4014	Kumyk	Kipchak	Turkic	grey60	͏͏
Genzheaul	43.2934	46.75729	Kumyk	Kipchak	Turkic	grey60	͏͏
Germenchik	43.5403	46.7256	Kumyk	Kipchak	Turkic	grey60	͏͏
Dakhadaevka	43.1069	47.44029	Kumyk	Kipchak	Turkic	grey60	͏͏
Dorgeli	42.66556	47.29667	Kumyk	Kipchak	Turkic	grey60	͏͏
Dzhavankent	42.26265	47.80983	Kumyk	Kipchak	Turkic	grey60	͏͏
Dubki	43.02116	46.83746	Kumyk	Kipchak	Turkic	grey60	͏͏
Kazmaaul	43.4306	46.7644	Kumyk	Kipchak	Turkic	grey60	͏͏
Kaka-Shura	42.65194	47.38278	Kumyk	Kipchak	Turkic	grey60	͏͏
Kakamakhi	42.62928	47.43518	Kumyk	Kipchak	Turkic	grey60	͏͏
Kandauraul	43.3414	46.5664	Kumyk	Kipchak	Turkic	grey60	͏͏
Kapkaykent	42.248157	47.798984	Kumyk	Kipchak	Turkic	grey60	͏͏
Karabudakhkent	42.7067	47.5603	Kumyk	Kipchak	Turkic	grey60	͏͏
Karanayaul	42.51266	47.85563	Kumyk	Kipchak	Turkic	grey60	͏͏
Karlanyurt	43.2303	46.6447	Kumyk	Kipchak	Turkic	grey60	͏͏
Kafyr-Kumukh	42.83754	47.15412	Kumyk	Kipchak	Turkic	grey60	͏͏
Kayakent	42.3847	47.9044	Kumyk	Kipchak	Turkic	grey60	͏͏
Kerlikent	44.02694	46.74889	Kumyk	Kipchak	Turkic	grey60	͏͏
Kizilyurt	43.20182	46.87756	Kumyk	Kipchak	Turkic	grey60	͏͏
Korkmaskala	43.0225	47.2883	Kumyk	Kipchak	Turkic	grey60	͏͏
Kostek	43.3411	46.8536	Kumyk	Kipchak	Turkic	grey60	͏͏
Kyakhulay	42.96839	47.48301	Kumyk	Kipchak	Turkic	grey60	͏͏
Laklakyurt	43.30534	46.80168	Kumyk	Kipchak	Turkic	grey60	͏͏
Lyuksemburg	43.6617	46.7442	Kumyk	Kipchak	Turkic	grey60	͏͏
Manaskent	42.7367	47.6958	Kumyk	Kipchak	Turkic	grey60	͏͏
Matseevka	43.27151	46.98244	Kumyk	Kipchak	Turkic	grey60	͏͏
Muzhukay	43.6283	46.9013	Kumyk	Kipchak	Turkic	grey60	͏͏
Nizhnie Ishkarty	42.84698	46.97147	Kumyk	Kipchak	Turkic	grey60	͏͏
Nizhnee Kazanische	42.7644	47.1611	Kumyk	Kipchak	Turkic	grey60	͏͏
Nizhniy Dzhengutay	42.7014	47.2417	Kumyk	Kipchak	Turkic	grey60	͏͏
Novokayakent	42.3922	47.9878	Kumyk	Kipchak	Turkic	grey60	͏͏
Novyy Sulak	43.21068	46.81809	Kumyk	Kipchak	Turkic	grey60	͏͏
Novyy Khushet	42.900261	47.561244	Kumyk	Kipchak	Turkic	grey60	͏͏
Paraul	42.7394	47.3592	Kumyk	Kipchak	Turkic	grey60	͏͏
Semender	42.98833	47.40361	Kumyk	Kipchak	Turkic	grey60	͏͏
Sultan-Yangiyurt	43.21961	46.86187	Kumyk	Kipchak	Turkic	grey60	͏͏
Takalay	42.89677	47.1644	Kumyk	Kipchak	Turkic	grey60	͏͏
Tarki	42.94423	47.49527	Kumyk	Kipchak	Turkic	grey60	͏͏
Tatayurt	43.5619	46.9961	Kumyk	Kipchak	Turkic	grey60	͏͏
Temiraul	43.2539	46.8272	Kumyk	Kipchak	Turkic	grey60	͏͏
Temirgoe	43.127436	47.136434	Kumyk	Kipchak	Turkic	grey60	͏͏
Toturbiykala	43.2056	46.6933	Kumyk	Kipchak	Turkic	grey60	͏͏
Tumeller	42.1846	47.84238	Kumyk	Kipchak	Turkic	grey60	͏͏
Tyube	43.051429	47.286806	Kumyk	Kipchak	Turkic	grey60	͏͏
Ullubiyaul	42.59689	47.71825	Kumyk	Kipchak	Turkic	grey60	͏͏
Umarotar	43.42388	46.69025	Kumyk	Kipchak	Turkic	grey60	͏͏
Umashaul	43.32606	46.69719	Kumyk	Kipchak	Turkic	grey60	͏͏
Usemikent	42.3836	47.8681	Kumyk	Kipchak	Turkic	grey60	͏͏
Utamysh	42.4047	47.7492	Kumyk	Kipchak	Turkic	grey60	͏͏
Uchkent	43.1136	47.0794	Kumyk	Kipchak	Turkic	grey60	͏͏
Khalimbekaul	42.8447	47.1406	Kumyk	Kipchak	Turkic	grey60	͏͏
Khamavyurt	43.2722	46.4286	Kumyk	Kipchak	Turkic	grey60	͏͏
Khamamatyurt	43.60809	46.5006	Kumyk	Kipchak	Turkic	grey60	͏͏
Khasavyurt	43.246769	46.58939	Kumyk	Kipchak	Turkic	grey60	͏͏
Khasanay	43.63109	46.70978	Kumyk	Kipchak	Turkic	grey60	͏͏
Chagarotar	43.4692	46.5403	Kumyk	Kipchak	Turkic	grey60	͏͏
Chontaul	43.30481	46.85967	Kumyk	Kipchak	Turkic	grey60	͏͏
Shamkhal	43.056632	47.344526	Kumyk	Kipchak	Turkic	grey60	͏͏
Shamkhal-Termen	43.03389	47.31053	Kumyk	Kipchak	Turkic	grey60	͏͏
Shamkhal-Yangi-Yurt	43.29968	47.23072	Kumyk	Kipchak	Turkic	grey60	͏͏
Shushanovka	43.20156	46.98195	Kumyk	Kipchak	Turkic	grey60	͏͏
Ekibulak	43.04196	47.07152	Kumyk	Kipchak	Turkic	grey60	͏͏
Endirey	43.182964	46.662014	Kumyk	Kipchak	Turkic	grey60	͏͏
Erpeli	42.806119	46.973557	Kumyk	Kipchak	Turkic	grey60	͏͏
Yangikent	42.2042	47.8292	Kumyk	Kipchak	Turkic	grey60	͏͏
Aleksandro-Nevskoe	43.92181	46.55817	Nogai	Kipchak	Turkic	grey60	͏͏
Babayurt	43.601403	46.783386	Nogai	Kipchak	Turkic	grey60	͏͏
Batyr-Murza	44.176052	45.695673	Nogai	Kipchak	Turkic	grey60	͏͏
Boranchi	44.21684	45.53166	Nogai	Kipchak	Turkic	grey60	͏͏
Burumbay	43.888168	46.968787	Nogai	Kipchak	Turkic	grey60	͏͏
Gemetyube	43.5747	46.9014	Nogai	Kipchak	Turkic	grey60	͏͏
Karagas	44.2514	45.3853	Nogai	Kipchak	Turkic	grey60	͏͏
Karasu	44.08328	45.90582	Nogai	Kipchak	Turkic	grey60	͏͏
Kumli	43.9906	46.0658	Nogai	Kipchak	Turkic	grey60	͏͏
Kunbatar	44.29337	45.58396	Nogai	Kipchak	Turkic	grey60	͏͏
Makarovskoe	44.121013	46.892273	Nogai	Kipchak	Turkic	grey60	͏͏
Mangulaul	43.92672	47.31052	Nogai	Kipchak	Turkic	grey60	͏͏
Muzhukay	43.6283	46.9013	Nogai	Kipchak	Turkic	grey60	͏͏
Nariman	44.189709	45.835784	Nogai	Kipchak	Turkic	grey60	͏͏
Novaya Kosa	43.553007	47.367407	Nogai	Kipchak	Turkic	grey60	͏͏
Novovladimirskoe	43.9128	46.95124	Nogai	Kipchak	Turkic	grey60	͏͏
Novodmitrievka	44.0808	46.4847	Nogai	Kipchak	Turkic	grey60	͏͏
Novokrest'yanovskoe	43.88459	46.57013	Nogai	Kipchak	Turkic	grey60	͏͏
Oguzer	44.0508	47.0619	Nogai	Kipchak	Turkic	grey60	͏͏
Orazgulaul	43.564682	47.344642	Nogai	Kipchak	Turkic	grey60	͏͏
Ortatyube	44.24611	45.28167	Nogai	Kipchak	Turkic	grey60	͏͏
Sangishi	43.89977	47.03304	Nogai	Kipchak	Turkic	grey60	͏͏
Stepnoe	43.89479	46.49285	Nogai	Kipchak	Turkic	grey60	͏͏
Sulutyube	44.13378	45.81648	Nogai	Kipchak	Turkic	grey60	͏͏
Tamazatyube	43.578224	47.159585	Nogai	Kipchak	Turkic	grey60	͏͏
Tamazatyube (staroe)	43.66258	47.171012	Nogai	Kipchak	Turkic	grey60	͏͏
Tatayurt	43.5619	46.9961	Nogai	Kipchak	Turkic	grey60	͏͏
Terekli-Mekteb	44.1671	45.86975	Nogai	Kipchak	Turkic	grey60	͏͏
Uy-Salgan	44.21889	45.15639	Nogai	Kipchak	Turkic	grey60	͏͏
Khasanay	43.63109	46.70978	Nogai	Kipchak	Turkic	grey60	͏͏
Chervlennye Buruny	44.16142	45.62342	Nogai	Kipchak	Turkic	grey60	͏͏
Shakhbulatotar	43.57167	46.70056	Nogai	Kipchak	Turkic	grey60	͏͏
Edige	44.07361	46.35778	Nogai	Kipchak	Turkic	grey60	͏͏
Yangylbay	43.63059	46.93654	Nogai	Kipchak	Turkic	grey30	͏͏
